,City,Cloudiness,Country,Date,Humidity,Lat,Lng,Max Temp,Wind Speed
0,Nikolskoye,75,RU,1595758252,55,59.7,30.79,66.99,11.18
1,North Bend,1,US,1595758254,100,43.41,-124.22,54.0,4.7
2,Bilibino,7,RU,1595758255,48,68.05,166.44,72.97,7.67
3,Atuona,4,PF,1595758256,73,-9.8,-139.03,79.75,21.18
4,Punta Arenas,100,CL,1595758257,86,-53.15,-70.92,32.0,25.28
5,Mataura,20,NZ,1595758259,93,-46.19,168.86,39.52,2.33
6,Bitkine,90,TD,1595758260,57,11.98,18.21,86.54,9.4
7,Tuktoyaktuk,100,CA,1595758262,94,69.45,-133.04,43.88,3.74
8,San Juan,0,AR,1595758263,47,-31.54,-68.54,46.04,3.18
9,Qaanaaq,18,GL,1595758264,60,77.48,-69.36,44.17,2.08
10,Chokurdakh,72,RU,1595758233,36,70.63,147.92,81.59,2.8
11,Riviere-au-Renard,75,CA,1595758266,93,49.0,-64.4,62.6,3.36
12,Katsuura,75,JP,1595758059,94,35.13,140.3,81.0,6.93
13,Camacha,40,PT,1595758269,73,33.08,-16.33,69.8,13.87
14,Richards Bay,0,ZA,1595758270,22,-28.78,32.04,74.64,3.69
15,Puerto Ayora,96,EC,1595758271,92,-0.74,-90.35,66.99,1.01
16,Nuevo Progreso,100,MX,1595758273,89,23.17,-97.95,82.0,5.99
17,Shingū,75,JP,1595758220,94,33.73,135.98,73.4,4.7
18,New Norfolk,57,AU,1595758275,81,-42.78,147.06,46.99,1.97
19,Bayir,20,TR,1595758276,36,37.27,28.22,91.4,11.41
20,Hilo,90,US,1595758278,74,19.73,-155.09,78.8,11.41
21,Flinders,100,AU,1595758279,94,-34.58,150.86,60.01,8.99
22,Albany,96,US,1595758280,73,42.6,-73.97,66.99,3.6
23,Ust-Nera,81,RU,1595758148,46,64.57,143.2,70.81,10.36
24,Los Llanos de Aridane,20,ES,1595758283,69,28.66,-17.92,75.2,16.11
25,Port Alfred,26,ZA,1595758284,55,-33.59,26.89,67.39,30.4
26,Souillac,75,MU,1595758285,83,-20.52,57.52,69.8,18.34
27,Bluff,63,NZ,1595758286,81,-46.6,168.33,49.42,10.98
28,Avarua,100,CK,1595758185,78,-21.21,-159.78,71.6,5.82
29,Kortkeros,20,RU,1595758289,38,61.81,51.58,77.0,6.71
30,Vaini,20,TO,1595758290,83,-21.2,-175.2,69.8,6.93
31,Cayenne,81,GF,1595758291,100,4.93,-52.33,73.4,4.85
32,Cape Town,40,ZA,1595758293,67,-33.93,18.42,60.8,16.11
33,Stornoway,88,GB,1595758294,77,58.21,-6.39,59.0,19.46
34,Lompoc,90,US,1595758295,87,34.64,-120.46,57.2,3.36
35,Hobart,75,AU,1595758250,76,-42.88,147.33,48.2,4.7
36,Ushuaia,75,AR,1595758298,86,-54.8,-68.3,30.2,3.36
37,Ulaangom,21,MN,1595758299,29,49.98,92.07,79.92,9.06
38,Cap Malheureux,91,MU,1595758300,85,-19.98,57.61,66.99,8.99
39,Maïné Soroa,21,NE,1595758302,45,13.21,12.02,92.68,16.78
40,Kavaratti,99,IN,1595758303,78,10.57,72.64,82.0,13.33
41,Butaritari,0,KI,1595758304,75,3.07,172.79,83.08,18.48
42,Laguna,1,US,1595758305,68,38.42,-121.42,64.4,8.05
43,Suntar,65,RU,1595758307,76,62.14,117.63,65.62,3.31
44,Tuatapere,7,NZ,1595758245,86,-46.13,167.68,41.86,4.21
45,Qaqortoq,100,GL,1595758309,93,60.72,-46.03,46.4,3.36
46,Upernavik,100,GL,1595758310,91,72.79,-56.15,44.49,17.05
47,Barrow,90,US,1595758311,87,71.29,-156.79,44.6,8.05
48,Kaitangata,1,NZ,1595758313,73,-46.28,169.85,46.0,4.0
49,Ilulissat,100,GL,1595758314,93,69.22,-51.1,44.6,13.87
50,Berezyne,97,UA,1595758315,25,46.23,29.2,88.07,8.7
51,Provideniya,44,RU,1595758317,69,64.38,-173.3,56.52,5.57
52,Mackay,40,AU,1595758318,82,-21.15,149.2,66.2,6.93
53,Port Elizabeth,20,ZA,1595758320,59,-33.92,25.57,66.2,31.09
54,Mindelo,40,CV,1595758321,83,16.89,-24.98,78.8,14.99
55,Kumul,0,CN,1595758237,9,42.8,93.45,99.59,17.83
56,Rikitea,13,PF,1595758323,80,-23.12,-134.97,70.95,21.45
57,Lagoa,1,PT,1595758325,90,39.05,-27.98,72.27,16.87
58,Agadez,67,NE,1595758326,11,19.75,10.25,98.19,12.06
59,Coquimbo,79,CL,1595758327,70,-29.95,-71.34,46.4,4.7
60,Tura,51,IN,1595758329,78,25.52,90.22,85.6,4.34
61,Eyl,80,SO,1595758331,38,7.98,49.82,90.73,22.7
62,Kieta,100,PG,1595758332,81,-6.22,155.63,79.5,8.46
63,Soubre,63,CI,1595758333,63,5.79,-6.61,78.91,4.81
64,Pisco,90,PE,1595758334,87,-13.7,-76.22,60.8,3.36
65,Hualmay,71,PE,1595758335,85,-11.1,-77.61,58.37,5.97
66,Mahébourg,75,MU,1595758337,83,-20.41,57.7,69.8,18.34
67,Faya,40,SA,1595758338,25,18.39,42.45,84.2,13.87
68,Adrar,0,MR,1595758339,29,20.5,-10.07,91.08,13.47
69,Ribeira Grande,75,PT,1595758340,94,38.52,-28.7,71.6,12.75
70,Abong Mbang,100,CM,1595758342,91,3.98,13.18,71.85,4.41
71,Kapaa,90,US,1595758343,78,22.08,-159.32,80.6,18.34
72,Vanimo,100,PG,1595758344,87,-2.67,141.3,78.82,8.21
73,Arraial do Cabo,40,BR,1595758345,94,-22.97,-42.03,69.8,8.05
74,Carnarvon,0,AU,1595758347,56,-24.87,113.63,71.6,10.29
75,Busselton,0,AU,1595758348,66,-33.65,115.33,62.01,6.17
76,Pangoa,38,PE,1595758351,88,-12.12,-73.0,62.08,1.99
77,Vestmannaeyjar,75,IS,1595758352,87,63.44,-20.27,50.0,8.05
78,Isangel,64,VU,1595758353,83,-19.55,169.27,73.4,3.36
79,San Patricio,100,MX,1595758355,88,19.22,-104.7,76.71,3.0
80,Drăgoteşti,60,RO,1595758356,52,44.8,23.17,76.5,3.56
81,Hermanus,91,ZA,1595758357,74,-34.42,19.23,59.0,5.99
82,Calbuco,75,CL,1595758359,93,-41.77,-73.13,44.6,4.7
83,Cidreira,81,BR,1595758360,77,-30.18,-50.21,47.14,7.67
84,Charters Towers,0,AU,1595758361,45,-20.1,146.27,66.51,8.48
85,Anchorage,90,US,1595758362,76,61.22,-149.9,55.99,2.37
86,Saint George,1,US,1595758364,19,37.1,-113.58,77.0,3.36
87,La Rioja,89,AR,1595758365,49,-29.41,-66.85,46.67,3.13
88,San Pedro de Macorís,40,DO,1595758366,100,18.46,-69.3,75.2,4.7
89,Swan Hill,24,AU,1595758367,73,-35.34,143.55,48.69,7.23
90,Quatre Cocos,75,MU,1595758369,83,-20.21,57.76,69.8,18.34
91,Caucayá,60,CO,1595758370,98,-0.19,-74.78,67.89,1.36
92,Bengkulu,42,ID,1595758372,77,-3.8,102.27,82.54,11.95
93,Geraldton,0,AU,1595758373,77,-28.77,114.6,66.2,5.82
94,Khatanga,100,RU,1595758353,78,71.97,102.5,42.39,9.86
95,Hithadhoo,99,MV,1595758375,67,-0.6,73.08,83.61,9.71
96,Angoche,15,MZ,1595758376,54,-16.23,39.91,77.18,9.26
97,Plettenberg Bay,91,ZA,1595758378,74,-34.05,23.37,59.76,14.72
98,East London,20,ZA,1595758379,40,-33.02,27.91,73.4,21.92
99,George Town,40,MY,1595758211,66,5.41,100.34,87.8,8.05
100,Bambous Virieux,75,MU,1595758381,68,-20.34,57.76,71.6,19.46
101,Hay River,20,CA,1595758381,93,60.82,-115.8,53.6,4.38
102,Kulhudhuffushi,76,MV,1595758384,70,6.62,73.07,82.98,8.3
103,Vuktyl,39,RU,1595758385,39,63.86,57.31,77.25,2.93
104,Thompson,90,CA,1595758386,93,55.74,-97.86,62.6,4.7
105,Urucará,0,BR,1595758388,83,-2.54,-57.76,71.26,0.25
106,Paramirim,0,BR,1595758389,84,-13.44,-42.24,60.66,4.27
107,Laval,75,CA,1595758390,57,45.57,-73.69,75.2,18.34
108,Ben Gardane,0,TN,1595758392,33,33.14,11.22,91.44,7.56
109,Ibotirama,0,BR,1595758393,74,-12.19,-43.22,63.48,2.28
110,Izhma,19,RU,1595758394,32,65.01,53.91,81.88,4.56
111,Pochutla,100,MX,1595758395,80,15.74,-96.47,71.76,4.63
112,Kandi,27,BJ,1595758397,68,11.13,2.94,82.98,7.7
113,Rosetown,0,CA,1595758378,88,51.55,-108.0,51.01,4.0
114,Zelenoborskiy,53,RU,1595758399,80,66.84,32.36,59.2,8.14
115,Brigantine,1,US,1595758400,94,39.41,-74.36,75.99,3.36
116,Weligama,100,LK,1595758402,72,5.97,80.42,82.81,12.77
117,Vao,54,NC,1595758403,82,-22.67,167.48,70.54,20.62
118,Alekseyevsk,100,RU,1595758404,34,57.84,108.35,76.87,3.18
119,Clyde River,90,CA,1595758405,100,70.47,-68.59,39.2,8.05
120,Lüderitz,0,NA,1595758407,49,-26.65,15.16,68.0,10.29
121,Guerrero Negro,0,MX,1595758409,89,27.98,-114.06,65.7,10.0
122,Vila Velha,90,BR,1595758410,88,-20.33,-40.29,66.2,3.36
123,Jamestown,1,US,1595758412,100,42.1,-79.24,62.6,5.82
124,Kavieng,100,PG,1595758413,78,-2.57,150.8,83.25,12.64
125,Korla,54,CN,1595758414,15,41.76,86.15,96.58,1.63
126,Svay Rieng,87,KH,1595758416,68,11.09,105.8,87.28,8.68
127,Saint-Philippe,77,RE,1595758417,64,-21.36,55.77,73.4,31.09
128,Bathsheba,20,BB,1595758418,74,13.22,-59.52,82.4,12.75
129,Nome,90,US,1595758375,76,64.5,-165.41,51.8,5.91
130,Severnoye,95,RU,1595758356,64,56.35,78.36,68.23,6.96
131,Turaif,0,SA,1595758422,16,31.67,38.66,107.6,11.41
132,Manicoré,12,BR,1595758424,71,-5.81,-61.3,72.5,1.92
133,Pestravka,0,RU,1595758425,37,52.41,49.96,76.62,10.71
134,Davidson,1,US,1595758426,83,36.15,-86.78,75.2,4.7
135,Matagami,90,CA,1595758427,100,49.75,-77.63,66.2,5.82
136,Sovetskiy,95,RU,1595758429,46,61.36,63.58,70.97,5.08
137,Yellowknife,40,CA,1595758386,71,62.46,-114.35,55.99,6.93
138,Hervey Bay,53,AU,1595758431,85,-25.3,152.85,62.01,21.99
139,Kalmunai,100,LK,1595758433,71,7.42,81.82,83.8,8.88
140,Olafsvik,99,IS,1595758434,78,64.89,-23.71,48.13,22.15
141,Arrondissement de Saint-Dizier,40,FR,1595758435,64,48.42,5.08,72.0,14.99
142,Antofagasta,0,CL,1595758436,87,-23.65,-70.4,51.8,8.05
143,Agbor,99,NG,1595758437,80,6.25,6.19,78.67,5.99
144,Thinadhoo,95,MV,1595758439,67,0.53,72.93,82.92,6.35
145,Saravan,0,AM,1595758440,19,39.72,45.65,96.8,6.93
146,Cabo San Lucas,12,MX,1595758441,69,22.89,-109.91,79.0,1.01
147,Kabompo,17,ZM,1595758443,29,-13.59,24.2,75.43,6.71
148,Bandarbeyla,100,SO,1595758444,40,9.49,50.81,91.26,22.55
149,Fairbanks,20,US,1595758445,100,64.84,-147.72,53.6,1.9
150,Havøysund,0,NO,1595758341,46,71.0,24.66,69.8,36.91
151,Shenjiamen,100,CN,1595758448,92,29.96,122.3,76.3,9.93
152,Hong Kong,20,HK,1595758207,63,22.29,114.16,91.4,17.22
153,Kirensk,100,RU,1595758450,34,57.79,108.11,76.87,3.18
154,Hirara,75,JP,1595758365,79,24.8,125.28,86.0,13.87
155,Tiksi,100,RU,1595758452,95,71.69,128.87,38.68,14.61
156,Najrān,40,SA,1595758454,27,17.49,44.13,98.6,6.93
157,Zachary,75,US,1595758455,88,30.65,-91.16,77.0,4.7
158,Talnakh,66,RU,1595758456,58,69.49,88.4,53.6,24.61
159,Jalu,0,LY,1595758457,19,29.03,21.55,95.38,8.32
160,La Santisima Trinidad,100,BO,1595758459,42,-14.83,-64.9,57.99,3.56
161,Ponta Delgada,75,PT,1595758460,78,37.73,-25.67,71.6,3.36
162,Trelleborg,100,SE,1595758462,73,55.38,13.16,69.8,12.75
163,Río Gallegos,18,AR,1595758386,79,-51.62,-69.22,24.8,14.99
164,Dicabisagan,49,PH,1595758465,76,17.08,122.42,84.25,5.75
165,Kupang,20,ID,1595758246,61,-10.17,123.58,78.8,9.17
166,Berdigestyakh,58,RU,1595758467,53,62.1,126.7,70.75,4.21
167,Port Macquarie,97,AU,1595758469,98,-31.43,152.92,55.0,9.75
168,Staryy Nadym,77,RU,1595758470,52,65.61,72.68,65.03,17.0
169,Salalah,90,OM,1595758362,94,17.02,54.09,80.6,8.05
170,Torbay,75,CA,1595758472,100,47.67,-52.73,59.0,9.17
171,Lavrentiya,27,RU,1595758354,85,65.58,-171.0,49.46,1.77
172,Asău,100,RO,1595758475,68,46.43,26.4,73.99,3.56
173,Takaka,0,NZ,1595758387,80,-40.85,172.8,46.99,1.01
174,Mocuba,13,MZ,1595758477,44,-16.84,36.99,76.96,5.35
175,Cockburn Town,7,TC,1595758478,83,21.46,-71.14,82.18,18.54
176,Salinópolis,14,BR,1595758386,84,-0.61,-47.36,78.51,6.08
177,Mar del Plata,100,AR,1595758438,75,-38.0,-57.56,48.99,9.17
178,Hlukhiv,86,UA,1595758482,60,51.68,33.92,75.13,7.52
179,Rosetta,40,EG,1595758483,62,31.4,30.42,86.0,12.75
180,Kilindoni,46,TZ,1595758485,71,-7.91,39.67,77.36,19.08
181,Hamilton,1,US,1595758205,100,39.18,-84.53,70.0,1.66
182,Teluk Nibung,44,ID,1595758487,71,3.0,99.82,85.84,8.61
183,Zabaykal'sk,56,RU,1595758488,50,49.63,117.32,84.94,7.94
184,Luganville,90,VU,1595758489,83,-15.53,167.17,77.0,8.05
185,Cape Canaveral,75,US,1595758491,88,28.41,-80.6,82.0,3.36
186,Yangi Marg`ilon,0,UZ,1595758492,20,40.43,71.72,96.8,6.93
187,Orlik,76,RU,1595758493,39,52.52,99.83,69.82,11.72
188,Dingle,86,PH,1595758494,85,11.0,122.67,81.86,0.85
189,Buraidah,0,SA,1595758357,27,26.33,43.98,109.4,6.93
190,Colares,20,PT,1595758497,73,38.8,-9.45,75.0,25.28
191,Gamboma,39,CG,1595758498,37,-1.88,15.86,90.43,5.95
192,Atar,0,MR,1595758499,23,20.52,-13.05,86.0,6.93
193,Ust'-Barguzin,100,RU,1595758357,84,53.45,108.98,60.71,5.86
194,Bilma,45,NE,1595758502,17,18.69,12.92,100.92,7.52
195,Saint-Augustin,95,CA,1595758504,93,51.23,-58.65,59.05,7.25
196,Kaeo,20,NZ,1595758505,3,-35.1,173.78,50.0,1.01
197,Arrondissement du Havre,75,FR,1595758506,72,49.58,0.33,64.4,13.87
198,Mahuva,51,IN,1595758367,67,21.09,71.76,88.05,11.79
199,Dikson,93,RU,1595758353,88,73.51,80.55,39.85,16.49
200,Tulagi,75,SB,1595758510,88,-9.1,160.15,77.0,4.7
201,Belyy Yar,44,RU,1595758512,42,53.6,91.39,82.4,4.47
202,Antalaha,95,MG,1595758276,78,-14.9,50.28,72.25,14.85
203,Saldanha,0,ZA,1595758375,63,-33.01,17.94,62.6,11.41
204,Grão Mogol,40,BR,1595758516,99,-16.56,-42.89,56.19,4.16
205,Zatoka,76,UA,1595758518,20,46.07,30.47,89.01,8.95
206,Rosarito,1,MX,1595758454,82,32.33,-117.03,66.0,6.67
207,Manta,100,EC,1595758521,85,-0.95,-80.73,69.62,4.27
208,Bariloche,75,AR,1595758523,86,-41.15,-71.31,37.4,16.11
209,Bethel,1,US,1595758524,94,41.37,-73.41,72.0,3.74
210,Mont-Dore,18,NC,1595758525,77,-22.28,166.58,68.0,3.36
211,Whitehorse,90,CA,1595758380,62,60.72,-135.05,55.4,16.11
212,Alyangula,22,AU,1595758387,60,-13.85,136.42,73.4,9.17
213,Zhigansk,97,RU,1595758354,71,66.77,123.37,56.62,17.07
214,Carinhanha,0,BR,1595758530,83,-14.3,-43.77,62.58,5.48
215,Jiayuguan City,0,CN,1595758446,11,39.82,98.3,92.1,13.18
216,Bembèrèkè,86,BJ,1595758533,78,10.23,2.66,78.69,7.54
217,Chui,0,UY,1595758534,86,-33.7,-53.46,39.43,5.1
218,Rassvet,34,RU,1595758535,22,46.83,40.75,91.63,18.63
219,Broken Hill,39,AU,1595758537,47,-31.95,141.43,55.4,8.05
220,Yulara,0,AU,1595758538,37,-25.24,130.99,64.4,4.7
221,Bontang,21,ID,1595758539,85,0.13,117.5,80.13,10.8
222,Lewisporte,40,CA,1595758540,93,49.25,-55.05,60.01,13.87
223,Saint-Joseph,50,RE,1595758541,68,-21.37,55.62,71.6,33.33
224,Paamiut,3,GL,1595758344,91,61.99,-49.67,43.65,5.1
225,Meulaboh,98,ID,1595758382,84,4.14,96.13,81.03,6.33
226,Cobija,100,BO,1595758545,90,-11.03,-68.77,63.12,2.91
227,Castro,99,BR,1595758546,90,-24.79,-50.01,53.33,9.19
228,Boşorod,88,RO,1595758548,76,45.68,23.08,68.7,1.97
229,Atasū,84,KZ,1595758549,30,48.68,71.64,79.03,5.84
230,Kano,54,NG,1595758550,60,12.0,8.52,83.17,12.64
231,Tasiilaq,68,GL,1595758344,70,65.61,-37.64,46.4,3.36
232,Okha,0,RU,1595758553,85,53.57,142.95,52.5,12.73
233,Vila Franca do Campo,75,PT,1595758554,78,37.72,-25.43,71.6,3.36
234,Tiarei,12,PF,1595758555,83,-17.53,-149.33,73.4,3.36
235,Lorengau,96,PG,1595758556,78,-2.02,147.27,82.94,10.67
236,Lodja,91,CD,1595758557,20,-3.48,23.43,94.48,4.27
237,Huarmey,72,PE,1595758559,85,-10.07,-78.15,58.8,5.84
238,Yaan,64,NG,1595758560,80,7.38,8.57,79.95,6.08
239,Aklavik,90,CA,1595758561,81,68.22,-135.01,53.6,4.7
240,Mabaruma,7,GY,1595758562,98,8.2,-59.78,73.87,2.06
241,Samarai,99,PG,1595758564,88,-10.62,150.67,78.71,13.04
242,Grindavik,75,IS,1595758565,87,63.84,-22.43,50.0,10.29
243,Koslan,16,RU,1595758566,29,63.46,48.9,79.38,5.55
244,Makakilo City,1,US,1595758567,69,21.35,-158.09,80.6,5.82
245,Airai,56,TL,1595758569,100,-8.93,125.41,58.15,3.47
246,Maningrida,43,AU,1595758570,49,-12.07,134.27,76.68,14.0
247,Belmonte,75,BR,1595758571,94,-15.86,-38.88,71.6,10.29
248,Saint Paul Harbor,90,US,1595758572,81,57.79,-152.41,53.6,6.93
249,Mangalia,75,RO,1595758574,54,43.8,28.58,80.6,9.17
250,Touros,20,BR,1595758575,94,-5.2,-35.46,71.6,6.93
251,Inzhavino,0,RU,1595758576,43,52.32,42.49,74.88,3.51
252,Takoradze,89,GH,1595758577,71,4.88,-1.76,79.61,8.75
253,Grand Gaube,90,MU,1595758578,86,-20.01,57.66,66.99,11.99
254,Constitución,100,CL,1595758580,76,-35.33,-72.42,49.95,4.38
255,Omboué,100,GA,1595758581,74,-1.57,9.26,75.88,5.46
256,Saskylakh,100,RU,1595758353,95,71.92,114.08,35.85,19.51
257,Wagar,82,SD,1595758583,39,16.15,36.2,93.45,18.07
258,Boca do Acre,81,BR,1595758585,90,-8.75,-67.4,65.53,3.62
259,Puerto del Rosario,75,ES,1595758586,73,28.5,-13.86,75.2,19.46
260,Novobiryusinskiy,83,RU,1595758587,65,56.96,97.71,73.04,3.74
261,Manavālakurichi,75,IN,1595758588,79,8.13,77.3,84.2,6.93
262,Berlevåg,12,NO,1595758590,38,70.86,29.09,73.4,14.99
263,Usinsk,3,RU,1595758591,37,65.99,57.53,75.49,9.46
264,East Wenatchee Bench,1,US,1595758592,48,47.43,-120.28,66.2,5.82
265,Sabang,40,ID,1595758388,79,5.89,95.32,82.69,20.18
266,Ahipara,6,NZ,1595758595,79,-35.17,173.17,49.05,4.16
267,Talcahuano,100,CL,1595758596,93,-36.72,-73.12,51.8,5.82
268,Shache,21,CN,1595758368,9,38.42,77.24,101.14,12.66
269,Xining,15,CN,1595758599,26,36.62,101.77,80.02,4.07
270,Moroni,20,KM,1595758600,58,-11.7,43.26,82.4,20.8
271,Zhangjiakou Shi Xuanhua Qu,31,CN,1595758602,67,40.61,115.04,71.37,11.48
272,Beringovskiy,24,RU,1595758354,76,63.05,179.32,59.09,5.5
273,Fortuna,1,US,1595758604,93,40.6,-124.16,53.01,2.26
274,Ābādān,0,IR,1595758574,31,30.34,48.3,113.0,4.7
275,Severo-Kuril'sk,97,RU,1595758358,86,50.68,156.12,50.52,14.18
276,Alofi,42,NU,1595758387,94,-19.06,-169.92,69.8,11.41
277,Kindersley,20,CA,1595758376,87,51.47,-109.17,53.6,13.87
278,Jumla,88,NP,1595758610,95,29.27,82.18,75.0,4.47
279,Toora-Khem,72,RU,1595758612,37,52.47,96.11,76.19,3.15
280,Chengde,100,CN,1595758613,74,40.97,117.94,70.68,2.95
281,Bojonegoro,99,ID,1595758614,62,-7.15,111.88,81.09,5.61
282,Sitka,90,US,1595758615,93,57.05,-135.33,55.4,12.75
283,Terrace,99,CA,1595758617,85,54.52,-128.6,56.46,2.48
284,Prata,17,BR,1595758618,63,-19.31,-48.92,62.06,7.58
285,Esperance,0,AU,1595758619,76,-33.87,121.9,55.4,8.05
286,Lindi,40,TZ,1595758620,57,-10.0,39.72,80.6,20.8
287,Wau,96,SS,1595758622,70,7.7,28.0,80.24,6.4
288,Tautira,27,PF,1595758623,83,-17.73,-149.15,73.4,3.36
289,Cherskiy,16,RU,1595758625,45,68.75,161.3,74.88,1.39
290,Nantucket,40,US,1595758626,94,41.28,-70.1,72.0,10.29
291,Luau,32,AO,1595758627,21,-10.71,22.22,81.93,6.15
292,Hanting,100,CN,1595758629,81,36.77,119.21,73.85,4.25
293,Shimoda,100,JP,1595758630,94,34.67,138.95,73.0,6.91
294,Cabedelo,75,BR,1595758631,100,-6.98,-34.83,71.6,8.05
295,Sarakhs,0,IR,1595758360,14,36.54,61.16,107.6,9.1
296,Mehamn,0,NO,1595758341,38,71.04,27.85,73.4,14.99
297,São Filipe,100,CV,1595758635,87,14.9,-24.5,78.15,7.29
298,Porto Nacional,0,BR,1595758636,49,-10.71,-48.42,71.6,9.17
299,Kudahuvadhoo,72,MV,1595758637,65,2.67,72.89,83.17,7.0
300,Auki,100,SB,1595758638,85,-8.77,160.7,78.22,5.32
301,Yamada,100,JP,1595758640,93,39.47,141.95,67.48,2.98
302,Jaciara,0,BR,1595758641,82,-15.97,-54.97,57.34,1.72
303,Burnie,11,AU,1595758642,78,-41.07,145.92,48.99,1.99
304,Port-Cartier,75,CA,1595758643,93,50.03,-66.87,62.6,3.69
305,Reconquista,0,AR,1595758386,77,-29.15,-59.65,40.6,7.9
306,Aras,0,ES,1595758646,47,42.56,-2.36,78.8,5.82
307,Wamba,97,NG,1595758647,73,8.93,8.6,81.12,4.05
308,Aquin,0,HT,1595758648,81,18.28,-73.4,78.6,3.09
309,Aksarayskiy,0,RU,1595758650,14,46.79,48.01,91.4,13.42
310,Wajima,75,JP,1595758651,100,37.4,136.9,73.4,4.7
311,Marsaxlokk,20,MT,1595758652,55,35.84,14.54,86.0,9.17
312,Terney,98,RU,1595758653,81,45.05,136.61,61.5,0.27
313,Berezniki,32,RU,1595758655,44,59.42,56.81,71.74,6.53
314,Muncie,1,US,1595758657,88,40.19,-85.39,66.99,2.93
315,Kahului,90,US,1595758658,78,20.89,-156.47,77.0,8.05
316,Yashkul',49,RU,1595758660,14,46.17,45.34,94.62,16.62
317,Urmia,20,IR,1595758607,12,37.55,45.08,96.8,18.34
318,Acapulco de Juárez,97,MX,1595758373,81,16.86,-99.89,77.43,5.88
319,Ouadda,99,CF,1595758664,91,8.08,22.4,69.78,5.44
320,Casas Grandes,100,MX,1595758383,93,30.37,-107.95,64.99,3.53
321,Guangzhou,40,CN,1595758489,50,23.12,113.25,104.0,11.18
322,Distrikt Brokopondo,6,SR,1595758668,89,4.75,-55.17,75.13,5.14
323,Viseu,0,PT,1595758669,43,40.66,-7.91,82.0,3.0
324,Tulun,100,RU,1595758670,59,54.56,100.58,74.5,2.64
325,Bredasdorp,86,ZA,1595758672,59,-34.53,20.04,62.6,13.87
326,Voh,0,NC,1595758673,84,-20.97,164.7,67.84,6.98
327,Pandan,36,PH,1595758675,77,14.05,124.17,83.88,4.63
328,Nueva Concepción,84,GT,1595758676,90,14.2,-91.3,73.11,4.5
329,Srostki,49,RU,1595758677,71,52.42,85.7,70.77,26.89
330,Vrindāvan,40,IN,1595758678,49,27.58,77.7,93.2,4.7
331,Lashio,100,MM,1595758680,71,22.93,97.75,81.19,5.14
332,Tahe,96,CN,1595758387,73,52.33,124.73,76.1,5.23
333,Turukhansk,66,RU,1595758682,55,65.82,87.98,64.33,11.52
334,Šahy,75,SK,1595758684,54,48.07,18.95,81.0,1.12
335,Gouyave,20,GD,1595758685,88,12.16,-61.73,80.6,11.41
336,Ridgecrest,1,US,1595758687,33,35.62,-117.67,75.2,10.29
337,Altagracia de Orituco,19,VE,1595758688,92,9.86,-66.38,69.19,1.7
338,Port Hardy,0,CA,1595758689,83,50.7,-127.42,55.29,3.04
339,Kingston,20,JM,1595758424,65,18.0,-76.79,82.4,10.29
340,La Mata,100,PA,1595758691,94,8.08,-80.88,73.22,3.67
341,Rancho Palos Verdes,2,US,1595758693,95,33.74,-118.39,62.01,1.01
342,Egvekinot,79,RU,1595758694,87,66.32,-179.17,50.07,5.06
343,Ancud,40,CL,1595758695,93,-41.87,-73.82,43.0,4.7
344,Abuyog,64,PH,1595758696,79,10.67,125.05,81.88,2.75
345,Faanui,2,PF,1595758698,84,-16.48,-151.75,77.58,16.02
346,Neftçala,0,AZ,1595758699,43,39.37,49.25,85.53,9.91
347,Pevek,18,RU,1595758464,70,69.7,170.31,56.88,12.53
348,Kailua,75,US,1595758504,69,21.4,-157.74,80.6,14.99
349,Mount Isa,0,AU,1595758703,25,-20.73,139.5,64.4,9.17
350,Lebu,81,CL,1595758704,88,-37.62,-73.65,52.25,11.59
351,Ankazoabo,0,MG,1595758705,28,-22.28,44.52,77.18,10.31
352,Nishihara,75,JP,1595758706,79,26.18,127.76,84.2,10.29
353,Sur,99,OM,1595758707,55,22.57,59.53,91.18,5.08
354,Petropavlovsk-Kamchatskiy,76,RU,1595758709,67,53.05,158.65,62.6,2.19
355,Kovdor,76,RU,1595758710,61,67.57,30.48,63.64,10.76
356,Ponta do Sol,0,PT,1595758711,65,32.67,-17.1,72.0,2.57
357,Saint Augustine,75,US,1595758681,88,29.89,-81.31,77.0,4.52
358,Shangrao,87,CN,1595758714,76,28.45,117.97,88.14,3.53
359,Kampene,0,CD,1595758715,19,-3.6,26.67,92.82,5.91
360,Mossamedes,5,AO,1595758716,82,-15.2,12.15,68.0,6.76
361,Boralday,75,KZ,1595758718,18,43.36,76.86,93.2,8.95
362,Great Falls,1,US,1595758719,75,47.5,-111.3,52.0,5.82
363,Comodoro Rivadavia,75,AR,1595758720,86,-45.87,-67.5,33.8,4.7
364,Shetpe,11,KZ,1595758722,13,44.17,52.12,96.06,11.79
365,Alice Springs,0,AU,1595758562,44,-23.7,133.88,59.0,6.93
366,Trélazé,75,FR,1595758725,64,47.45,-0.47,72.0,5.82
367,Buchanan,75,LR,1595758726,78,5.88,-10.05,82.4,11.41
368,Ambon City,75,ID,1595758591,83,-3.7,128.18,82.0,4.7
369,Cartagena,48,CO,1595758729,82,10.4,-75.51,79.54,6.17
370,Hasaki,75,JP,1595758431,78,35.73,140.83,82.4,5.82
371,Sola,75,VU,1595758731,83,-13.88,167.55,80.6,9.17
372,San Cristobal,100,VE,1595758732,90,7.77,-72.22,64.08,3.78
373,Cervo,74,ES,1595758734,75,43.67,-7.41,73.0,1.99
374,Coahuayana Viejo,97,MX,1595758735,89,18.73,-103.68,75.42,2.86
375,Yatou,99,CN,1595758722,81,37.15,122.38,72.43,3.6
376,Krasnyy Yar,0,RU,1595758737,14,46.53,48.35,91.4,13.42
377,Skagen,100,DK,1595758738,86,57.72,10.58,66.0,20.0
378,Imeni Poliny Osipenko,100,RU,1595758740,81,52.42,136.49,61.5,2.39
379,Tilichiki,0,RU,1595758741,77,60.47,166.1,59.92,5.06
380,Badiraguato,100,MX,1595758742,93,25.37,-107.52,82.99,1.41
381,Nouadhibou,75,MR,1595758746,83,20.93,-17.03,71.6,16.11
382,Brae,66,GB,1595758748,87,60.4,-1.35,57.2,9.17
383,Pointe-Noire,40,CG,1595758749,74,-4.78,11.86,78.8,4.7
384,Kralendijk,99,BQ,1595758750,100,12.15,-68.27,77.0,8.05
385,Talara,40,PE,1595758751,86,-4.58,-81.27,63.0,15.7
386,Celestún,100,MX,1595758753,82,20.87,-90.4,80.06,13.22
387,Sabha,0,LY,1595758754,15,27.04,14.43,95.04,10.49
388,Tocantins,0,BR,1595758756,49,-10.5,-48.0,71.6,9.17
389,Buluang,97,PH,1595758758,80,13.31,123.34,83.3,0.87
390,Yārāda,40,IN,1595758760,63,17.65,83.27,91.4,6.93
391,Ji’an,100,CN,1595758761,75,27.12,114.98,87.69,2.86
392,Nizhniy Tsasuchey,93,RU,1595758762,74,50.52,115.13,77.85,1.5
393,Biltine,15,TD,1595758763,36,14.53,20.92,91.81,7.38
394,Zaraza,50,VE,1595758765,97,9.35,-65.32,71.17,1.7
395,Tarnogskiy Gorodok,100,RU,1595758766,53,60.5,43.58,72.54,5.91
396,San Felipe,60,VE,1595758768,92,10.34,-68.74,70.5,2.3
397,Semey,23,KZ,1595758769,44,50.41,80.23,77.0,8.95
398,Kirakira,100,SB,1595758770,83,-10.45,161.92,79.57,12.71
399,Bhubaneswar,40,IN,1595758687,70,20.23,85.83,91.4,5.82
400,Husavik,75,IS,1595758774,81,66.04,-17.34,46.4,9.17
401,Sept-Îles,75,CA,1595758775,93,50.2,-66.38,62.6,3.96
402,Gamba,74,GA,1595758776,70,-2.65,10.0,76.68,5.79
403,Vostok,39,RU,1595758777,84,46.49,135.88,66.92,0.72
404,Manzhouli,43,CN,1595758779,48,49.6,117.43,85.33,7.76
405,Klaksvík,40,FO,1595758780,76,62.23,-6.59,53.6,13.87
406,Laas,40,IT,1595758781,77,46.62,10.7,71.01,5.82
407,Gornopravdinsk,100,RU,1595758783,42,60.05,69.9,70.5,5.82
408,Mwinilunga,93,ZM,1595758784,26,-11.74,24.43,75.81,7.07
409,Sisimiut,100,GL,1595758785,92,66.94,-53.67,45.3,10.63
410,Montluçon,93,FR,1595758787,87,46.33,2.6,71.01,11.5
411,Falun,98,SE,1595758788,63,60.6,15.63,71.01,8.05
412,Santa Marta,89,CO,1595758789,88,11.24,-74.2,73.99,5.66
413,Muroto-misakicho,75,JP,1595758791,94,33.28,134.15,75.2,4.7
414,Saint Anthony,75,US,1595758792,88,45.02,-93.22,72.0,9.17
415,Haimen,20,CN,1595758773,59,23.19,116.61,93.2,15.66
416,Imeni Babushkina,66,RU,1595758795,43,59.76,43.13,73.4,4.63
417,Rafaela,0,AR,1595758796,52,-31.25,-61.49,45.0,5.99
418,Beloha,0,MG,1595758797,30,-25.17,45.05,76.28,9.46
419,Ostrovnoy,4,RU,1595758798,57,68.05,39.51,68.32,7.65
420,Cairns,0,AU,1595758501,68,-16.92,145.77,71.6,11.41
421,Natal,40,BR,1595758576,94,-5.79,-35.21,71.6,10.29
422,Santiago de Cuba,20,CU,1595758803,88,20.02,-75.82,77.0,5.82
423,Alta Floresta,16,BR,1595758804,66,-9.88,-56.09,65.75,3.91
424,Beira,75,MZ,1595758636,73,-19.84,34.84,71.6,8.05
425,Iskateley,40,RU,1595758807,45,67.68,53.15,76.93,7.65
426,Warrnambool,99,AU,1595758808,92,-38.38,142.48,46.0,1.54
427,Weyburn,0,CA,1595758810,57,49.67,-103.85,58.21,10.27
428,Sarankhola,100,BD,1595758811,75,22.31,89.79,88.54,8.84
429,Mananara,46,MG,1595758812,73,-16.17,49.77,71.89,13.2
430,Dedovichi,30,RU,1595758813,53,57.55,29.95,72.9,0.78
431,Te Anau,4,NZ,1595758815,88,-45.42,167.72,38.07,1.16
432,Ziniaré,20,BF,1595758816,83,12.58,-1.3,80.6,11.41
433,Dalby,88,AU,1595758818,83,-27.18,151.27,55.0,1.99
434,Wetaskiwin,20,CA,1595758819,93,52.97,-113.37,53.01,6.93
435,Aguililla,100,MX,1595758820,93,18.73,-102.73,65.93,3.8
436,Iqaluit,40,CA,1595758801,87,63.75,-68.51,42.8,3.22
437,Gigmoto,34,PH,1595758823,77,13.78,124.39,83.77,3.69
438,Marand,20,IR,1595758824,11,38.43,45.77,96.8,20.8
439,Urengoy,63,RU,1595758825,47,65.97,78.37,63.84,15.99
440,Cho Dok,91,VN,1595758730,73,10.7,105.12,86.36,8.84
441,Kuvshinovo,86,RU,1595758829,63,57.03,34.17,72.37,2.44
442,Villa Bisonó,20,DO,1595758830,88,19.56,-70.88,78.8,6.55
443,Puerto Escondido,100,MX,1595758831,76,15.85,-97.07,77.7,5.48
444,Araouane,35,ML,1595758833,31,18.9,-3.53,97.92,10.22
445,Winnemucca,1,US,1595758834,25,40.97,-117.74,73.4,18.34
446,Empalme,0,MX,1595758835,84,27.97,-110.82,82.99,3.0
447,Henties Bay,0,NA,1595758836,66,-22.12,14.28,68.0,2.48
448,Sankheda,40,IN,1595758787,56,22.17,73.58,95.0,3.36
449,Okhotsk,9,RU,1595758839,75,59.38,143.3,58.78,12.06
450,Xiongzhou,100,CN,1595758840,56,25.12,114.3,91.9,5.91
451,Canchungo,75,GW,1595758841,74,12.07,-16.03,84.2,5.82
452,Tagusao,39,PH,1595758842,73,9.19,117.81,83.7,2.95
453,Chiredzi,1,ZW,1595758844,33,-21.05,31.67,73.08,4.45
454,Port Blair,54,IN,1595758662,71,11.67,92.75,84.16,3.42
455,Santa Cruz,40,MA,1595758847,69,30.42,-9.6,77.0,3.36
456,Narsaq,100,GL,1595758848,93,60.92,-46.05,46.4,3.36
457,Makarov,95,RU,1595758849,86,48.63,142.8,57.85,6.82
458,Northam,60,GB,1595758850,92,51.03,-4.22,64.99,10.0
459,Phalodi,70,IN,1595758814,39,27.13,72.37,97.88,9.1
460,Dzidzantun,100,MX,1595758853,93,21.25,-89.05,75.06,4.29
461,Denison,1,US,1595758854,88,33.76,-96.54,75.99,4.7
462,Loikaw,100,MM,1595758855,80,19.67,97.21,80.92,2.8
463,Jasper,1,US,1595758857,83,37.2,-94.35,75.2,5.82
464,Nueva Guinea,98,NI,1595758858,94,11.69,-84.46,70.16,2.26
465,Joigny,75,FR,1595758859,56,47.98,3.4,73.4,10.29
466,Rio Branco,75,BR,1595758860,87,-9.97,-67.81,60.8,6.93
467,Cherëmukhovo,85,RU,1595758862,41,60.35,59.99,71.19,5.55
468,Kisangani,41,CD,1595758863,63,0.52,25.2,84.69,2.98
469,Huangmei,100,CN,1595758864,90,30.19,116.03,79.9,2.75
470,Zschopau,100,DE,1595758865,94,50.75,13.07,64.99,18.99
471,Sungai Penuh,78,ID,1595758867,90,-2.08,101.38,71.85,0.96
472,Etchoropo,0,MX,1595758868,66,26.77,-109.67,84.0,3.94
473,Golyshmanovo,81,RU,1595758869,44,56.4,68.37,69.06,6.31
474,Arona,20,ES,1595758870,61,28.1,-16.68,79.0,23.04
475,Half Moon Bay,90,US,1595758871,87,37.46,-122.43,62.6,8.05
476,Lac du Bonnet,41,CA,1595758873,99,50.25,-96.06,60.01,1.99
477,Weihai,100,CN,1595758633,74,37.5,122.11,80.01,7.81
478,Manono,1,CD,1595758875,24,-7.3,27.42,88.21,8.14
479,The Pas,90,CA,1595758877,82,53.83,-101.25,60.8,13.87
480,Nanortalik,97,GL,1595758879,88,60.14,-45.24,43.02,2.04
481,San Quintín,4,MX,1595758880,90,30.48,-115.95,65.34,9.22
482,Kununurra,0,AU,1595758882,24,-15.77,128.73,77.0,9.17
483,Robertsport,100,LR,1595758883,81,6.75,-11.37,76.93,13.71
484,Kathmandu,75,NP,1595758690,69,27.72,85.32,82.4,5.82
485,Luanda,75,AO,1595758885,65,-8.84,13.23,80.6,3.36
486,Saint-Pierre,29,RE,1595758887,68,-21.34,55.48,71.6,33.33
487,Namatanai,99,PG,1595758888,80,-3.67,152.43,81.12,9.37
488,La Macarena,47,CO,1595758889,97,2.18,-73.78,67.1,1.66
489,Ambilobe,98,MG,1595758890,51,-13.2,49.05,77.09,11.21
490,Tefé,95,BR,1595758892,97,-3.35,-64.71,71.6,1.25
491,Nebbi,56,UG,1595758893,65,2.48,31.09,77.23,5.48
492,Budhlāda,76,IN,1595758756,40,29.93,75.57,98.31,1.57
493,Bhatkal,97,IN,1595758897,78,13.97,74.57,81.39,10.71
494,Camaná,73,PE,1595758898,77,-16.62,-72.71,58.19,6.71
495,Mīrābād,0,AF,1595758899,6,30.44,61.84,113.9,17.07
496,Virginia Beach,20,US,1595758900,88,36.85,-75.98,77.0,4.7
497,Nyurba,62,RU,1595758902,79,63.28,118.33,63.32,5.48
498,Philadelphia,20,US,1595758903,100,39.95,-75.16,78.01,4.7
499,Broome,1,US,1595758904,88,42.25,-75.83,64.99,5.82
500,Shiyan,100,CN,1595758905,55,32.65,110.78,75.99,3.11
501,Vallenar,0,CL,1595758907,28,-28.57,-70.76,56.82,1.41
502,Rumford,97,US,1595758908,84,44.55,-70.55,66.99,1.01
503,Coolum Beach,74,AU,1595758909,67,-26.53,153.1,64.0,3.0
504,Ustka,69,PL,1595758911,56,54.58,16.86,75.85,17.02
505,Baculin,95,PH,1595758912,82,7.45,126.58,79.3,3.6
506,Leningradskiy,99,RU,1595758913,79,69.38,178.42,53.28,8.23
507,Cortez,1,US,1595758915,93,37.35,-108.59,60.8,3.6
508,Chapais,90,CA,1595758917,100,49.78,-74.85,66.2,3.36
509,Santa Rosa,88,PH,1595758657,62,14.31,121.11,89.6,6.93
510,Magadan,89,RU,1595758669,89,59.57,150.8,54.54,5.03
511,Norman Wells,40,CA,1595758920,82,65.28,-126.83,55.4,5.82
512,Nabire,100,ID,1595758922,82,-3.37,135.48,79.16,1.07
513,Poronaysk,64,RU,1595758923,92,49.22,143.12,55.78,8.46
514,Nizhneangarsk,63,RU,1595758924,45,55.78,109.55,68.16,0.74
515,Bonavista,74,CA,1595758926,91,48.65,-53.11,58.53,15.39
516,Seminole,1,US,1595758927,88,28.71,-81.21,77.0,2.98
517,Madison Heights,1,US,1595758929,78,42.49,-83.11,72.0,4.7
518,Am Timan,100,TD,1595758930,73,11.03,20.28,81.81,7.11
519,Veinticinco de Mayo,1,AR,1595758931,72,-35.43,-60.17,39.0,1.01
520,Yertsevo,5,RU,1595758932,40,60.8,40.09,73.09,3.89
521,Idenao,75,CM,1595758934,100,4.25,9.0,75.2,1.12
522,Casa Nova,0,BR,1595758935,73,-9.42,-41.13,67.91,20.56
523,Bandrele,75,YT,1595758937,69,-12.91,45.19,78.8,13.87
524,Nago,40,JP,1595758689,79,26.59,127.98,84.2,8.05
525,Menongue,0,AO,1595758939,20,-14.66,17.69,76.8,7.23
526,Eilat,4,IL,1595758941,20,29.56,34.95,102.2,18.34
527,Sibsāgar,90,IN,1595758942,94,26.98,94.63,80.6,3.36
528,Mayumba,100,GA,1595758944,73,-3.43,10.66,74.98,4.23
529,Christchurch,47,NZ,1595758701,77,-43.53,172.63,42.01,2.24
530,Tazovsky,85,RU,1595758946,53,67.47,78.7,57.36,16.8
531,Katangli,19,RU,1595758947,91,51.71,143.23,49.89,9.19
532,Codrington,98,AU,1595758949,83,-38.27,141.97,43.79,0.56
533,Kopervik,75,NO,1595758950,88,59.28,5.31,63.0,2.24
534,Portland,1,US,1595758801,55,45.52,-122.68,64.99,6.93
535,Raja,100,SS,1595758953,83,8.46,25.68,75.65,3.6
536,Berbérati,100,CF,1595758954,94,4.26,15.79,70.83,4.0
537,Krasnomayskiy,100,RU,1595758956,72,57.62,34.41,67.6,3.71
538,Goderich,75,CA,1595758957,83,43.75,-81.72,75.99,1.01
539,Zhezkazgan,75,KZ,1595758959,19,47.8,67.71,89.6,6.71
540,Ekhabi,0,RU,1595758960,86,53.51,142.97,52.09,12.39
541,Itarema,4,BR,1595758962,73,-2.92,-39.92,75.43,15.39
542,Denpasar,20,ID,1595758847,83,-8.65,115.22,78.8,16.11
543,Linares,100,CL,1595758964,72,-35.85,-71.6,45.9,3.31
544,Sioux Lookout,75,CA,1595758966,88,50.1,-91.92,73.4,6.93
545,Chernyshevskiy,2,RU,1595758967,49,63.01,112.47,63.88,7.61
546,Andenes,42,NO,1595758968,68,69.31,16.12,64.4,12.75
547,Yozgat Province,0,TR,1595758970,19,39.58,35.33,86.16,4.12
548,Rockhampton,40,AU,1595758955,68,-23.38,150.5,64.4,4.7
549,Carauari,74,BR,1595758973,96,-4.88,-66.9,71.73,1.21
550,Mount Gambier,100,AU,1595758974,87,-37.83,140.77,44.6,1.57
551,Zhanakorgan,83,KZ,1595758975,13,43.91,67.25,97.23,15.46
552,Mitsamiouli,20,KM,1595758977,58,-11.38,43.28,82.4,20.8
553,Coyhaique,90,CL,1595758687,100,-45.58,-72.07,30.2,3.36
554,Greymouth,68,NZ,1595758881,88,-42.47,171.2,45.34,3.96
555,Port Moresby,40,PG,1595758981,88,-9.44,147.18,78.8,24.16
556,Amazar,93,RU,1595758982,62,53.86,120.88,77.09,8.34
557,Anadyr,60,RU,1595758983,82,64.75,177.48,62.6,11.18
558,College,40,US,1595758985,87,64.86,-147.8,53.6,4.7
559,Teknāf,97,BD,1595758987,73,20.86,92.31,86.25,9.51
560,Bubaque,100,GW,1595758988,81,11.28,-15.83,80.65,14.54
